$GPRMC,220516,A,5133.82,N,00042.24,W,173.8,231.8,130694,004.2,W*70
$GPBOD,099.3,T,105.6,M,POINTB,*01
$GPBOD,097.0,T,103.2,M,POINTB,POINTA*52
$GPBWC,081837,,,,,,T,,M,,N,*13
$GPBWC,220516,5130.02,N,00046.34,W,213.8,T,218.0,M,0004.6,N,EGLM*11
$GPGLL,3751.65,S,14507.36,E*77
$GPGLL,4916.45,N,12311.12,W,225444,A
$GPGLL,5133.81,N,00042.25,W*75
$GPGSA,A,3,,,,,,16,18,,22,24,,,3.6,2.1,2.2*3C
$GPGSA,A,3,19,28,14,18,27,22,31,39,,,,,1.7,1.0,1.3*35
$GPGSV,3,1,11,03,03,111,00,04,15,270,00,06,01,010,00,13,06,292,00*74
$GPGSV,3,2,11,14,25,170,00,16,57,208,39,18,67,296,40,19,40,246,00*74
$GPGSV,3,3,11,22,42,067,42,24,14,311,43,27,05,244,00,,,,*4D
$GPGSV,1,1,13,02,02,213,,03,-3,000,,11,00,121,,14,13,172,05*67
$GPR00,EGLL,EGLM,EGTB,EGUB,EGTK,MBOT,EGTB,,,,,,,*58
$GPR00,MINST,CHATN,CHAT1,CHATW,CHATM,CHATE,003,004,005,006
$GPRMB,A,0.66,L,003,004,4917.24,N,12309.57,W,001.3,052.5,000.5,V*0B
$GPRMB,A,4.08,L,EGLL,EGLM,5130.02,N,00046.34,W,004.6,213.9,122.9,A*3D
$GPRMC,081836,A,3751.65,S,14507.36,E,000.0,360.0,130998,011.3,E*62
$GPRMC,225446,A,4916.45,N,12311.12,W,000.5,054.7,191194,020.3,E*68
$GPRMC,220516,A,5133.82,N,00042.24,W,173.8,231.8,130694,004.2,W*70
$GPRTE,2,1,c,0,PBRCPK,PBRTO,PTELGR,PPLAND,PYAMBU,PPFAIR,PWARRN,PMORTL,PLISMR*73
$GPRTE,2,2,c,0,PCRESY,GRYRIE,GCORIO,GWERR,GWESTG,7FED*34
$GPVTG,360.0,T,348.7,M,000.0,N,000.0,K*43
$GPVTG,054.7,T,034.4,M,005.5,N,010.2,K
$GPWPL,4917.16,N,12310.64,W,003*65
$GPWPL,5128.62,N,00027.58,W,EGLL*59
$PGRME,15.0,M,45.0,M,25.0,M*22
$PGRMZ,246,f,3*1B
$PGRMZ,93,f,3*21
$GPGGA,210230,3855.4487,N,09446.0071,W,1,07,1.1,370.5,M,-29.5,M,,*7A
$GPGSV,2,1,08,02,74,042,45,04,18,190,36,07,67,279,42,12,29,323,36*77
$GPGSV,2,2,08,15,30,050,47,19,09,158,,26,12,281,40,27,38,173,41*7B
$GPRMC,210230,A,3855.4487,N,09446.0071,W,0.0,076.2,130495,003.8,E*69
$GPGGA,171059.000,3749.9201,N,12228.4985,W,2,09,1.0,-6.1,M,-25.3,M,5.0,0000*6E
$GPGSA,M,3,17,19,28,13,15,24,30,06,48,,,,1.9,1.0,1.6*3D
$GPRMC,171059.000,A,3749.9201,N,12228.4985,W,3.1,168,310716,,*03
$GPVTG,167.62,T,,M,3.1,N,,K,D*10
$GPZDA,171059.000,31,07,2016,,*5D
$IIHDM,163,M*38
$IIHDT,177,T*3D
$IIXDR,A,4,D,ROLL,A,-2,D,PTCH,A*1A
$TIROT,-0.0,A*16
$PFEC,GPatt,177,-2,4*7C
$IIMDA,29.95,I,1.01,B,19.8,C,17.0,C,68.0,,16.7,C,,,,,,,,*3F
$IIXDR,P,1.01408,B,Barometer*2B
$IIXDR,C,19.8,C,AirTemp*26
$IIMMB,29.95,I,1.01408,B*42
$IIMTA,19.8,C*05
$SDDPT,0.9,0.50*6B
$SDDBT,3.2,f,0.9,M,0.5,F*0B
$VWVHW,177,T,,M,4.2,N,,K*4D
$IIVDR,20,T,,M,1.3,N*39
$VWVLW,0.0,N,0.0,N*4C
$YXMTW,17.0,C*14
$PSRFTXT,Version:GSW3.2.2_3.1.00.12-SDK003P1.01a
$PSRFTXT,Version2:F-GPS-03-0607211
$PSRFTXT,WAAS Disable
$PSRFTXT,TOW:  26833
$PSRFTXT,WK:   1422
$PSRFTXT,POS:  2845429 2198159 5250582
$PSRFTXT,CLK:  96413
$PSRFTXT,CHNL: 12
$PSRFTXT,Baud rate: 4800
$GPGGA,072458.748,,,,,0,00,,,M,0.0,M,,0000*51
$GPGSA,A,1,,,,,,,,,,,,,,,*1E
$GPRMC,072458.748,V,,,,,,,080407,,*23
$GPGGA,072459.739,,,,,0,00,,,M,0.0,M,,0000*56
$GPGSA,A,1,,,,,,,,,,,,,,,*1E
$GPGSV,3,1,12,20,00,000,,10,00,000,,25,00,000,,27,00,000,*79
$GPGSV,3,2,12,22,00,000,,07,00,000,,21,00,000,,24,00,000,*79
$GPGSV,3,3,12,16,00,000,,28,00,000,,26,00,000,,29,00,000,*78
$GPRMC,072501.744,V,,,,,,,080407,,*22
$GPGGA,072502.739,,,,,0,00,,,M,0.0,M,,0000*59
$GPGSA,A,1,,,,,,,,,,,,,,,*1E
$GPRMC,072502.739,V,,,,,,,080407,,*2B
$GPGGA,072503.739,,,,,0,00,,,M,0.0,M,,0000*58
$GPGSA,A,1,,,,,,,,,,,,,,,*1E
$GPGSV,3,1,11,18,69,101,,22,59,191,,03,59,264,27,19,38,300,36*77
$GPGSV,3,2,11,21,38,095,,26,20,035,38,29,13,026,36,16,11,216,*7D
$GPGSV,3,3,11,08,05,337,,24,02,092,,14,00,167,*49
$GPRMC,072631.710,V,,,,,,,080407,,*23
$GPGGA,072632.710,,,,,0,00,,,M,0.0,M,,0000*52
$GPGSA,A,1,,,,,,,,,,,,,,,*1E
$GPRMC,072632.710,V,,,,,,,080407,,*20
$GPGGA,072633.710,,,,,0,00,,,M,0.0,M,,0000*53
$GPGSA,A,1,,,,,,,,,,,,,,,*1E
$GPRMC,072633.710,V,,,,,,,080407,,*21
$GPGGA,072634.710,5546.5698,N,03741.2066,E,1,03,10.6,174.3,M,14.4,M,,0000*69
$GPGSA,A,2,26,29,19,,,,,,,,,,10.6,10.6,1.0*35
$GPRMC,072634.710,A,5546.5698,N,03741.2066,E,0.00,,080407,,*17
$GPGGA,072635.710,5546.5696,N,03741.2067,E,1,03,10.6,174.3,M,14.4,M,,0000*67
$GPGSA,A,2,26,29,19,,,,,,,,,,10.6,10.6,1.0*35
$GPRMC,072635.710,A,5546.5696,N,03741.2067,E,0.00,,080407,,*19
$GPGGA,072636.711,5546.5674,N,03741.2020,E,0,03,,174.3,M,14.4,M,,0000*72
$GPGSA,A,1,26,29,19,,,,,,,,,,,,*19
$GPGSV,3,1,11,19,38,300,33,26,20,035,36,29,13,026,36,18,69,100,*71
$GPGSV,3,2,11,22,60,191,,03,59,264,31,21,38,095,,16,11,216,*7C
$GPGSV,3,3,11,08,05,337,,24,02,092,,14,01,167,*48
$GPRMC,072636.711,A,5546.5674,N,03741.2020,E,,,080407,,*0A
$GPGGA,072637.711,5546.5636,N,03741.1971,E,1,03,10.6,174.3,M,14.4,M,,0000*63
$GPGSA,A,2,26,29,19,,,,,,,,,,10.6,10.6,1.0*35
$GPRMC,072637.711,A,5546.5636,N,03741.1971,E,0.00,,080407,,*1D
$GPGGA,072638.711,5546.5879,N,03741.1766,E,1,03,10.6,174.3,M,14.4,M,,0000*61
$GPGSA,A,2,26,29,19,,,,,,,,,,10.6,10.6,1.0*35
$GPRMC,072638.711,A,5546.5879,N,03741.1766,E,0.00,,080407,,*1F
$GPGGA,072639.711,5546.5754,N,03741.1887,E,1,03,10.6,174.3,M,14.4,M,,0000*60
$GPGSA,A,2,26,29,19,,,,,,,,,,10.6,10.6,1.0*35
$GPRMC,072639.711,A,5546.5754,N,03741.1887,E,0.00,,080407,,*1E
$GPGGA,072640.711,5546.5537,N,03741.2054,E,1,03,10.6,174.3,M,14.4,M,,0000*6C
$GPGSA,A,2,26,29,19,,,,,,,,,,10.6,10.6,1.0*35
$GPRMC,072640.711,A,5546.5537,N,03741.2054,E,0.00,,080407,,*12
$GPGGA,072641.711,5546.5432,N,03741.2125,E,1,03,10.6,174.3,M,14.4,M,,0000*6E
$GPGSA,A,2,26,29,19,,,,,,,,,,10.6,10.6,1.0*35
$GPGSV,3,1,11,19,38,300,32,26,20,035,37,29,13,026,37,18,69,100,*70
$GPGSV,3,2,11,22,60,191,19,03,59,264,30,21,38,095,,16,11,216,*75
$GPGSV,3,3,11,08,05,337,,24,02,092,,14,01,167,*48
$GPRMC,072641.711,A,5546.5432,N,03741.2125,E,0.00,,080407,,*10
$GPGGA,072642.711,5546.5395,N,03741.2180,E,1,03,10.6,174.3,M,14.4,M,,0000*68
$GPGSA,A,2,26,29,19,,,,,,,,,,10.6,10.6,1.0*35
$GPRMC,072642.711,A,5546.5395,N,03741.2180,E,0.00,,080407,,*16
$GPGGA,072643.711,5546.5444,N,03741.2183,E,1,03,10.6,174.3,M,14.4,M,,0000*61
$GPGSA,A,2,26,29,19,,,,,,,,,,10.6,10.6,1.0*35
$GPRMC,072643.711,A,5546.5444,N,03741.2183,E,0.00,,080407,,*1F
$GPGGA,072644.711,5546.5275,N,03741.2278,E,1,03,10.6,174.3,M,14.4,M,,0000*65
$GPGSA,A,2,26,29,19,,,,,,,,,,10.6,10.6,1.0*35
$GPRMC,072644.711,A,5546.5275,N,03741.2278,E,0.00,,080407,,*1B
$GPGGA,072645.711,5546.5705,N,03741.2058,E,1,03,10.6,174.3,M,14.4,M,,0000*66
$GPGSA,A,2,26,29,19,,,,,,,,,,10.6,10.6,1.0*35
$GPRMC,072645.711,A,5546.5705,N,03741.2058,E,0.00,,080407,,*18
$GPGGA,072646.711,5546.5684,N,03741.2060,E,1,03,10.6,174.3,M,14.4,M,,0000*66
$GPGSA,A,2,26,29,19,,,,,,,,,,10.6,10.6,1.0*35
$GPGSV,3,1,11,19,38,300,33,26,20,035,36,29,13,026,37,18,69,100,*70
$GPGSV,3,2,11,22,60,191,17,03,59,264,29,21,38,095,,16,11,216,*73
$GPGSV,3,3,11,08,05,337,,24,02,092,,14,01,167,*48
$GPRMC,072646.711,A,5546.5684,N,03741.2060,E,0.00,,080407,,*18
$GPGGA,072647.711,5546.5618,N,03741.2094,E,1,03,10.6,174.3,M,14.4,M,,0000*69
$GPGSA,A,2,26,29,19,,,,,,,,,,10.6,10.6,1.0*35
$GPRMC,072647.711,A,5546.5618,N,03741.2094,E,0.00,,080407,,*17
$GPRMC,080935,A,3512.589,N,08449.304,W,000.0,360.0,230806,004.1,W*79
$GPRMB,A,,,,,,,,,,,,V*71
$GPGGA,080935,3512.589,N,08449.304,W,1,08,2.0,311.4,M,-31.4,M,,*76
$GPGSA,A,3,02,,06,,10,18,21,26,,29,30,,3.2,2.0,3.0*31
$GPGSV,3,1,11,02,29,090,42,05,03,202,00,06,53,297,46,08,00,074,00*7E
$GPGSV,3,2,11,10,53,036,46,18,10,239,34,21,15,294,37,26,42,159,45*7D
$GPGSV,3,3,11,27,00,048,00,29,51,146,46,30,16,237,37,,,,*48
$PGRME,15.0,M,22.5,M,15.0,M*1B
$GPGLL,3512.589,N,08449.304,W,080935,A*38
$PGRMZ,1021,f,3*29
$PGRMM,WGS 84*06
$GPBOD,,T,,M,,*47
$GPRTE,1,1,c,0*07
$GPRMC,080937,A,3512.589,N,08449.304,W,000.0,360.0,230806,004.1,W*7B
$GPRMB,A,,,,,,,,,,,,V*71
$GPGGA,080937,3512.589,N,08449.304,W,1,08,2.0,311.4,M,-31.4,M,,*74
$PMGNTRK,3406.836,N,11752.882,W,00185,M,003445.80,A,,220705*6C
$PMGNTRK,3406.860,N,11752.882,W,00178,M,003506.78,A,,220705*6C
$PMGNTRK,3407.680,N,11752.873,W,00185,M,003825.81,A,,220705*6B
$PMGNTRK,3407.703,N,11752.873,W,00185,M,003834.31,A,,220705*6A
$PMGNTRK,3407.714,N,11752.873,W,00185,M,003839.81,A,,220705*6A